{
  "cities": [
    {
      "cityName": "Lisbon",
      "country": "Portugal",
      "emoji": "ðŸ‡µðŸ‡¹",
      "date": "2027-10-31T15:59:59.138Z",
      "notes": "My favorite city so far!",
      "position": {
        "lat": 38.727881642324164,
        "lng": -9.140900099907554
      },
      "id": 73930385
    },
    {
      "cityName": "Madrid",
      "country": "Spain",
      "emoji": "ðŸ‡ªðŸ‡¸",
      "date": "2027-07-15T08:22:53.976Z",
      "notes": "",
      "position": {
        "lat": 40.46635901755316,
        "lng": -3.7133789062500004
      },
      "id": 17806751
    },
    {
      "cityName": "Berlin",
      "country": "Germany",
      "emoji": "ðŸ‡©ðŸ‡ª",
      "date": "2027-02-12T09:24:11.863Z",
      "notes": "Amazing ðŸ˜ƒ",
      "position": {
        "lat": 52.53586782505711,
        "lng": 13.376933665713324
      },
      "id": 98443197
    },
    {
      "cityName": "Saudrupt",
      "country": "France",
      "emoji": "ðŸ‡«ðŸ‡·",
      "date": "2023-11-14T17:11:54.310Z",
      "notes": "",
      "position": {
        "lat": "48.69096039092552",
        "lng": "5.053710937500001"
      },
      "id": 98443198
    },
    {
      "cityName": "Odivelas",
      "country": "Portugal",
      "emoji": "ðŸ‡µðŸ‡¹",
      "date": "2023-11-15T09:48:33.146Z",
      "notes": "",
      "position": {
        "lat": "38.78393574999995",
        "lng": "-9.185612318796029"
      },
      "id": 98443199
    }
  ]
}